
{
    "metadata": {
      "stations": [
        {
          "id": "S117",
          "device_id": "S117",
          "name": "Banyan Road",
          "location": {
            "latitude": 1.256,
            "longitude": 103.679
          }
        },
        {
          "id": "S50",
          "device_id": "S50",
          "name": "Clementi Road",
          "location": {
            "latitude": 1.3337,
            "longitude": 103.7768
          }
        },
        {
          "id": "S107",
          "device_id": "S107",
          "name": "East Coast Parkway",
          "location": {
            "latitude": 1.3135,
            "longitude": 103.9625
          }
        },
        {
          "id": "S44",
          "device_id": "S44",
          "name": "Nanyang Avenue",
          "location": {
            "latitude": 1.34583,
            "longitude": 103.68166
          }
        },
        {
          "id": "S122",
          "device_id": "S122",
          "name": "Sembawang Road",
          "location": {
            "latitude": 1.41731,
            "longitude": 103.8249
          }
        },
        {
          "id": "S115",
          "device_id": "S115",
          "name": "Tuas South Avenue 3",
          "location": {
            "latitude": 1.29377,
            "longitude": 103.61843
          }
        },
        {
          "id": "S116",
          "device_id": "S116",
          "name": "West Coast Highway",
          "location": {
            "latitude": 1.281,
            "longitude": 103.754
          }
        },
        {
          "id": "S104",
          "device_id": "S104",
          "name": "Woodlands Avenue 9",
          "location": {
            "latitude": 1.44387,
            "longitude": 103.78538
          }
        },
        {
          "id": "S100",
          "device_id": "S100",
          "name": "Woodlands Road",
          "location": {
            "latitude": 1.4172,
            "longitude": 103.74855
          }
        }
      ],
      "reading_type": "DBT 1M F",
      "reading_unit": "deg C"
    },
    "items": [
      {
        "timestamp": "2020-06-12T18:55:00+08:00",
        "readings": [
          {
            "station_id": "S117",
            "value": 29.4
          },
          {
            "station_id": "S50",
            "value": 28.8
          },
          {
            "station_id": "S107",
            "value": 29.4
          },
          {
            "station_id": "S44",
            "value": 29.6
          },
          {
            "station_id": "S122",
            "value": 26.1
          },
          {
            "station_id": "S115",
            "value": 29.5
          },
          {
            "station_id": "S116",
            "value": 29.6
          },
          {
            "station_id": "S104",
            "value": 28.5
          },
          {
            "station_id": "S100",
            "value": 28.3
          }
        ]
      }
    ],
    "api_info": {
      "status": "healthy"
    }
  }